[
  {
    "name": "La Maison de Bacon",
    "tripadvisor_rating": 4,
    "price_range": "€€€€",
    "latitude": 43.569595,
    "longitude": 7.139114,
    "cuisines": ["French", "Seafood", "Mediterranean", "European"],
    "city": "Antibes",
    "address": "664 Bd de Bacon, 06160 Antibes",
    "google_rating": 4.3,
    "rating": 4.15,
    "id": 1
  },
  {
    "name": "Le Fricot",
    "tripadvisor_rating": 5,
    "price_range": "€€ - €€€",
    "latitude": 43.57996,
    "longitude": 7.122875,
    "cuisines": [
      "French",
      "Mediterranean",
      "Healthy",
      "Gastropub",
      "Dining bars"
    ],
    "city": "Antibes",
    "address": "1 Trav. du 24 Août, 06600 Antibes",
    "google_rating": 4.9,
    "rating": 4.95,
    "id": 2
  },
  {
    "name": "La Petite Escale",
    "tripadvisor_rating": 5,
    "price_range": "€€ - €€€",
    "latitude": 43.579903,
    "longitude": 7.123,
    "cuisines": ["French", "European", "Asian", "Healthy"],
    "city": "Antibes",
    "address": "30 Rue Fourmillière, 06600 Antibes",
    "google_rating": 4.8,
    "rating": 4.9,
    "id": 3
  },
  {
    "name": "Salé Sucré",
    "tripadvisor_rating": 5,
    "price_range": "€€ - €€€",
    "latitude": 43.579723,
    "longitude": 7.12296,
    "cuisines": ["Mediterranean"],
    "city": "Antibes",
    "address": "5 Av. 24 Août, 06600 Antibes",
    "google_rating": 4.7,
    "rating": 4.85,
    "id": 4
  },
  {
    "name": "La Taille de Guêpe",
    "tripadvisor_rating": 4.5,
    "price_range": "€€ - €€€",
    "latitude": 43.580345,
    "longitude": 7.124971,
    "cuisines": ["French", "European", "Healthy"],
    "city": "Antibes",
    "address": "24 Rue de Fersen, 06600 Antibes",
    "google_rating": 4.8,
    "rating": 4.65,
    "id": 5
  },
  {
    "name": "Terre et Mer",
    "tripadvisor_rating": 4.5,
    "price_range": "€",
    "latitude": 43.571854,
    "longitude": 7.102465,
    "cuisines": ["French", "Seafood", "Mediterranean", "Healthy"],
    "city": "Antibes",
    "address": "4 Sq. du Lys, 06160 Antibes",
    "google_rating": 4.5,
    "rating": 4.5,
    "id": 6
  },
  {
    "name": "Bistro & Co.",
    "tripadvisor_rating": 4.5,
    "price_range": "€€ - €€€",
    "latitude": 43.609478,
    "longitude": 7.12544,
    "cuisines": [
      "Italian",
      "French",
      "Bar",
      "Pizza",
      "Mediterranean",
      "Healthy"
    ],
    "city": "Antibes",
    "address": "Espace Laporte, 1170 Rte de Nice, 06600 Antibes",
    "google_rating": 4.7,
    "rating": 4.6,
    "id": 7
  },
  {
    "name": "Cote Jardin",
    "tripadvisor_rating": 4.5,
    "price_range": "€€ - €€€",
    "latitude": 43.572063,
    "longitude": 7.089676,
    "cuisines": ["French", "Mediterranean", "European"],
    "city": "Antibes",
    "address": "55 Av. de Cannes, 06600 Antibes",
    "google_rating": 4.6,
    "rating": 4.55,
    "id": 8
  },
  {
    "name": "Ban Kai Jaa - Thai Restaurant",
    "tripadvisor_rating": 4.5,
    "price_range": "€€ - €€€",
    "latitude": 43.58158,
    "longitude": 7.124854,
    "cuisines": ["Asian", "Thai", "Healthy"],
    "city": "Antibes",
    "address": "8 Rue du Dr Rostan, 06600 Antibes",
    "google_rating": 4.8,
    "rating": 4.65,
    "id": 9
  },
  {
    "name": "Chez Mô",
    "tripadvisor_rating": 4,
    "price_range": "€€ - €€€",
    "latitude": 43.576447,
    "longitude": 7.125001,
    "cuisines": ["French", "Seafood", "Mediterranean"],
    "city": "Antibes",
    "address": "46 Bd Albert 1er, 06600 Antibes",
    "google_rating": 4.3,
    "rating": 4.15,
    "id": 10
  },
  {
    "name": "La Trattoria - Antibes",
    "tripadvisor_rating": 4.5,
    "price_range": "€€ - €€€",
    "latitude": 43.58222,
    "longitude": 7.121502,
    "cuisines": ["Italian", "Grill"],
    "city": "Antibes",
    "address": "21 Av. Pasteur, 06600 Antibes",
    "google_rating": 4.7,
    "rating": 4.6,
    "id": 11
  },
  {
    "name": "La Maison de Bacon",
    "tripadvisor_rating": 4,
    "price_range": "€€€€",
    "latitude": 43.569595,
    "longitude": 7.139114,
    "cuisines": ["French", "Seafood", "Mediterranean", "European"],
    "city": "Antibes",
    "address": "664 Bd de Bacon, 06160 Antibes",
    "google_rating": 4.3,
    "rating": 4.15,
    "id": 12
  },
  {
    "name": "La creperie du port",
    "tripadvisor_rating": 4.5,
    "price_range": "€€ - €€€",
    "latitude": 43.582882,
    "longitude": 7.126783,
    "cuisines": ["French", "Latvian"],
    "city": "Antibes",
    "address": "22 Rue Thuret, 06600 Antibes",
    "google_rating": 4.5,
    "rating": 4.5,
    "id": 13
  },
  {
    "name": "Cap Riviera",
    "tripadvisor_rating": 4.5,
    "price_range": "€€€€",
    "latitude": 43.567337,
    "longitude": 7.112781,
    "cuisines": ["French", "Mediterranean", "Healthy"],
    "city": "Antibes",
    "address": "13 Bd Edouard Baudoin, 06160 Antibes",
    "google_rating": 4.6,
    "rating": 4.55,
    "id": 14
  },
  {
    "name": "Le Vauban",
    "tripadvisor_rating": 4.5,
    "price_range": "€€€€",
    "latitude": 43.581955,
    "longitude": 7.126467,
    "cuisines": ["French", "Mediterranean", "European", "Healthy", "Gastropub"],
    "city": "Antibes",
    "address": "7bis Rue Thuret, 06600 Antibes",
    "google_rating": 4.7,
    "rating": 4.6,
    "id": 15
  },
  {
    "name": "Pizzagora",
    "tripadvisor_rating": 4.5,
    "price_range": "€€ - €€€",
    "latitude": 43.57091,
    "longitude": 7.103927,
    "cuisines": ["Italian", "Pizza", "European"],
    "city": "Antibes",
    "address": "1 Rue des Îles, 06160 Antibes",
    "google_rating": 4.6,
    "rating": 4.55,
    "id": 16
  },
  {
    "name": "Le Bistrot du Coin",
    "tripadvisor_rating": 5,
    "price_range": "€€ - €€€",
    "latitude": 43.5796,
    "longitude": 7.126867,
    "cuisines": ["French", "Mediterranean", "European", "Healthy", "Gastropub"],
    "city": "Antibes",
    "address": "7 Rue de la Pompe, 06600 Antibes",
    "google_rating": 4.8,
    "rating": 4.9,
    "id": 17
  },
  {
    "name": "Panino - Antibes.",
    "tripadvisor_rating": 5,
    "price_range": "€",
    "latitude": 43.5799,
    "longitude": 7.122843,
    "cuisines": ["Italian", "Healthy"],
    "city": "Antibes",
    "address": "3 Trav. du 24 Août, 06600 Antibes",
    "google_rating": 4.6,
    "rating": 4.8,
    "id": 18
  },
  {
    "name": "Golden Beef Steak House",
    "tripadvisor_rating": 4,
    "price_range": "€€ - €€€",
    "latitude": 43.57751,
    "longitude": 7.125842,
    "cuisines": ["French", "Steakhouse", "Pizza", "Barbecue", "European"],
    "city": "Antibes",
    "address": "1 Av. du Général Maizière, 06600 Antibes",
    "google_rating": 4.1,
    "rating": 4.05,
    "id": 19
  },
  {
    "name": "Restaurant Le J",
    "tripadvisor_rating": 4.5,
    "price_range": "€€ - €€€",
    "latitude": 43.568375,
    "longitude": 7.113297,
    "cuisines": ["French", "Mediterranean", "European", "Healthy"],
    "city": "Antibes",
    "address": "17 Av. Dr Dautheville, 06160 Antibes",
    "google_rating": 4.8,
    "rating": 4.65,
    "id": 20
  },
  {
    "name": "Le Figuier de Saint Esprit",
    "tripadvisor_rating": 4.5,
    "price_range": "€€€€",
    "latitude": 43.58181,
    "longitude": 7.128442,
    "cuisines": ["French", "European"],
    "city": "Antibes",
    "address": "14 Rue du Saint-Esprit, 06600 Antibes",
    "google_rating": 4.4,
    "rating": 4.45,
    "id": 21
  },
  {
    "name": "Le Phenicia",
    "tripadvisor_rating": 4.5,
    "price_range": "€€ - €€€",
    "latitude": 43.57681,
    "longitude": 7.125609,
    "cuisines": ["Lebanese", "Mediterranean", "Healthy", "Middle Eastern"],
    "city": "Antibes",
    "address": "1 Av. Barquier, 06600 Antibes",
    "google_rating": 4.3,
    "rating": 4.4,
    "id": 22
  },
  {
    "name": "La Tour Antique",
    "tripadvisor_rating": 4.5,
    "price_range": "€€ - €€€",
    "latitude": 43.58,
    "longitude": 7.127128,
    "cuisines": ["Italian", "French", "Mediterranean", "European"],
    "city": "Antibes",
    "address": "4 Rue de la Tourraque, 06600 Antibes",
    "google_rating": 4.5,
    "rating": 4.5,
    "id": 23
  },
  {
    "name": "Amour Café",
    "tripadvisor_rating": 5,
    "price_range": "€€ - €€€",
    "latitude": 43.579853,
    "longitude": 7.125662,
    "cuisines": ["Cafe", "Dining bars"],
    "city": "Antibes",
    "address": "19 Rue des Revennes, 06600 Antibes",
    "google_rating": 4.9,
    "rating": 4.95,
    "id": 24
  },
  {
    "name": "Jeanne",
    "tripadvisor_rating": 4.5,
    "price_range": "€€ - €€€",
    "latitude": 43.581005,
    "longitude": 7.126895,
    "cuisines": ["French", "Wine Bar"],
    "city": "Antibes",
    "address": "10 Rue Sade, 06600 Antibes",
    "google_rating": 4.9,
    "rating": 4.7,
    "id": 25
  },
  {
    "name": "Pizza Fifi",
    "tripadvisor_rating": 4.5,
    "price_range": "€",
    "latitude": 43.5707,
    "longitude": 7.11436,
    "cuisines": ["Italian", "Pizza"],
    "city": "Antibes",
    "address": "112 Bd du Président Wilson, 06160 Antibes",
    "google_rating": 4.5,
    "rating": 4.5,
    "id": 26
  },
  {
    "name": "Romagna Mia",
    "tripadvisor_rating": 4.5,
    "price_range": "€€ - €€€",
    "latitude": 43.578342,
    "longitude": 7.123933,
    "cuisines": [
      "Italian",
      "Mediterranean",
      "European",
      "Emilian",
      "Northern-Italian"
    ],
    "city": "Antibes",
    "address": "14 Av. Maréchal Reille, 06600 Antibes",
    "google_rating": 4.7,
    "rating": 4.6,
    "id": 27
  },
  {
    "name": "Choopy's Cupcakes & Coffee Shop",
    "tripadvisor_rating": 4.5,
    "price_range": "€€ - €€€",
    "latitude": 43.58086,
    "longitude": 7.124434,
    "cuisines": ["French", "Cafe", "Healthy"],
    "city": "Antibes",
    "address": "16 Rue Vial, 06600 Antibes",
    "google_rating": 4.5,
    "rating": 4.5,
    "id": 28
  },
  {
    "name": "La Famiglia",
    "tripadvisor_rating": 4,
    "price_range": "€€ - €€€",
    "latitude": 43.58286,
    "longitude": 7.123051,
    "cuisines": ["Italian"],
    "city": "Antibes",
    "address": "34 Av. Thiers, 06600 Antibes",
    "google_rating": 4.3,
    "rating": 4.15,
    "id": 29
  },
  {
    "name": "L'horizon",
    "tripadvisor_rating": 4.5,
    "price_range": "€€ - €€€",
    "latitude": 43.569897,
    "longitude": 7.106301,
    "cuisines": ["European", "Healthy"],
    "city": "Antibes",
    "address": "37 Bis Bd Charles Guillaumont, 06160 Antibes",
    "google_rating": 4.4,
    "rating": 4.45,
    "id": 30
  },
  {
    "name": "Lilian Bonnefoi",
    "tripadvisor_rating": 4.5,
    "price_range": "€€ - €€€",
    "latitude": 43.57881,
    "longitude": 7.12594,
    "cuisines": ["French", "Cafe", "Fast Food", "Healthy"],
    "city": "Antibes",
    "address": "2 Pl. du Safranier, 06600 Antibes",
    "google_rating": 4.7,
    "rating": 4.6,
    "id": 31
  },
  {
    "name": "La Maison de Bacon",
    "tripadvisor_rating": 4,
    "price_range": "€€€€",
    "latitude": 43.569595,
    "longitude": 7.139114,
    "cuisines": ["French", "Seafood", "Mediterranean", "European"],
    "city": "Biot",
    "address": "664 Bd de Bacon, 06160 Antibes",
    "google_rating": 4.3,
    "rating": 4.15,
    "id": 32
  },
  {
    "name": "Café De La Poste",
    "tripadvisor_rating": 4.5,
    "price_range": "€€ - €€€",
    "latitude": 43.627693,
    "longitude": 7.097977,
    "cuisines": ["French", "Bar", "Cafe", "Mediterranean"],
    "city": "Biot",
    "address": "24 Rue Saint-Sébastien, 06410 Biot",
    "google_rating": 4.4,
    "rating": 4.45,
    "id": 33
  },
  {
    "name": "Les Terraillers",
    "tripadvisor_rating": 4.5,
    "price_range": "€€€€",
    "latitude": 43.62675,
    "longitude": 7.095675,
    "cuisines": ["French", "Mediterranean", "European"],
    "city": "Biot",
    "address": "11 Chem. Neuf, 06410 Biot",
    "google_rating": 4.6,
    "rating": 4.55,
    "id": 34
  },
  {
    "name": "Cucina vera",
    "tripadvisor_rating": 4.5,
    "price_range": "€€ - €€€",
    "latitude": 43.628033,
    "longitude": 7.097135,
    "cuisines": ["Italian", "Mediterranean", "European"],
    "city": "Biot",
    "address": "44 Imp. Saint-Sébastien, 06410 Biot",
    "google_rating": 4.7,
    "rating": 4.6,
    "id": 35
  },
  {
    "name": "L 'Ostrea",
    "tripadvisor_rating": 4.5,
    "price_range": "€€ - €€€",
    "latitude": 43.618298,
    "longitude": 7.111124,
    "cuisines": ["French", "Seafood", "Mediterranean"],
    "city": "Biot",
    "address": "1520 Rte de la Mer, 06410 Biot",
    "google_rating": 4.5,
    "rating": 4.5,
    "id": 36
  },
  {
    "name": "Cafe Brun",
    "tripadvisor_rating": 4.5,
    "price_range": "€€ - €€€",
    "latitude": 43.628166,
    "longitude": 7.097278,
    "cuisines": ["French"],
    "city": "Biot",
    "address": "44 Rue Saint-Sébastien, 06410 Biot",
    "google_rating": 4.4,
    "rating": 4.45,
    "id": 37
  },
  {
    "name": "Mamma Mia Ristorante",
    "tripadvisor_rating": 5,
    "price_range": "€€ - €€€",
    "latitude": 43.62836,
    "longitude": 7.09591,
    "cuisines": [
      "Italian",
      "Mediterranean",
      "Healthy",
      "Neapolitan",
      "Campania",
      "Sicilian",
      "Northern-Italian",
      "Southern-Italian"
    ],
    "city": "Biot",
    "address": "15 Rte de Valbonne, 06410 Biot",
    "google_rating": 4.8,
    "rating": 4.9,
    "id": 38
  },
  {
    "name": "O'Sarracino",
    "tripadvisor_rating": 4.5,
    "price_range": "€€ - €€€",
    "latitude": 43.62691,
    "longitude": 7.09477,
    "cuisines": ["Italian", "Pizza", "Mediterranean", "European"],
    "city": "Biot",
    "address": "14 Chem. Neuf, 06410 Biot",
    "google_rating": 4.5,
    "rating": 4.5,
    "id": 39
  },
  {
    "name": "Bristot Les Verriers",
    "tripadvisor_rating": 4.5,
    "price_range": "€€ - €€€",
    "latitude": 43.6265,
    "longitude": 7.1015,
    "cuisines": ["French", "Mediterranean", "European"],
    "city": "Biot",
    "address": "5 Chem. des Combes, 06410 Biot",
    "google_rating": 4.3,
    "rating": 4.4,
    "id": 40
  },
  {
    "name": "Creperie Pizzeria du Vieux Village",
    "tripadvisor_rating": 4.5,
    "price_range": "€€ - €€€",
    "latitude": 43.628002,
    "longitude": 7.0967,
    "cuisines": ["French"],
    "city": "Biot",
    "address": "29 Rue Saint-Sébastien, 06410 Biot",
    "google_rating": 4.4,
    "rating": 4.45,
    "id": 41
  },
  {
    "name": "Le Bistrot Du Village",
    "tripadvisor_rating": 4.5,
    "price_range": "€€ - €€€",
    "latitude": 43.627544,
    "longitude": 7.098427,
    "cuisines": ["French", "Mediterranean"],
    "city": "Biot",
    "address": "8 Pass. de la Bourgade, 06410 Biot",
    "google_rating": 4.7,
    "rating": 4.6,
    "id": 42
  },
  {
    "name": "Les Arcades",
    "tripadvisor_rating": 4,
    "price_range": "€€ - €€€",
    "latitude": 43.626984,
    "longitude": 7.099131,
    "cuisines": ["French", "Mediterranean"],
    "city": "Biot",
    "address": "16 Pl. des Arcades, 06410 Biot",
    "google_rating": 4.2,
    "rating": 4.1,
    "id": 43
  },
  {
    "name": "La Cambuse de Galup",
    "tripadvisor_rating": 5,
    "price_range": "€€ - €€€",
    "latitude": 43.62836,
    "longitude": 7.09591,
    "cuisines": ["French", "European", "Healthy"],
    "city": "Biot",
    "address": "15 Rte de Valbonne, 06410 Biot",
    "google_rating": 5,
    "rating": 5.0,
    "id": 44
  },
  {
    "name": "Le Piccolo",
    "tripadvisor_rating": 4,
    "price_range": "€€ - €€€",
    "latitude": 43.627598,
    "longitude": 7.097624,
    "cuisines": ["French", "Mediterranean", "European"],
    "city": "Biot",
    "address": "30 Rue Saint-Sébastien, 06410 Biot",
    "google_rating": 4.1,
    "rating": 4.05,
    "id": 45
  },
  {
    "name": "Le Provençal Golf",
    "tripadvisor_rating": 4,
    "price_range": "€€ - €€€",
    "latitude": 43.61912,
    "longitude": 7.07497,
    "cuisines": ["French", "Mediterranean", "European"],
    "city": "Biot",
    "address": "95 Av. Roumanille, 06410 Biot",
    "google_rating": 4.3,
    "rating": 4.15,
    "id": 46
  },
  {
    "name": "Restaurant Oriental Palais Sarrazin",
    "tripadvisor_rating": 4.5,
    "price_range": "€€ - €€€",
    "latitude": 43.62846,
    "longitude": 7.097003,
    "cuisines": ["Moroccan", "Mediterranean", "Middle Eastern", "Tunisian"],
    "city": "Biot",
    "address": "5 Chem. des Bachettes, 06410 Biot",
    "google_rating": 4.5,
    "rating": 4.5,
    "id": 47
  },
  {
    "name": "Les Acacias",
    "tripadvisor_rating": 4,
    "price_range": "€€ - €€€",
    "latitude": 43.627304,
    "longitude": 7.098664,
    "cuisines": ["French", "Mediterranean", "European"],
    "city": "Biot",
    "address": "5 Rue Saint-Sébastien, 06410 Biot",
    "google_rating": 4.4,
    "rating": 4.2,
    "id": 48
  },
  {
    "name": "Restaurant La Bastide du Roy",
    "tripadvisor_rating": 4,
    "price_range": "€€ - €€€",
    "latitude": 43.617332,
    "longitude": 7.105207,
    "cuisines": ["French", "Gastropub"],
    "city": "Biot",
    "address": "La Bastide du Roy, 06410 Biot",
    "google_rating": null,
    "rating": 4,
    "id": 49
  },
  {
    "name": "L'Emblème",
    "tripadvisor_rating": 4,
    "price_range": "€€ - €€€",
    "latitude": 43.62025,
    "longitude": 7.060129,
    "cuisines": ["French", "Mediterranean", "European"],
    "city": "Biot",
    "address": "3550 Rte des Dolines, 06410 Biot",
    "google_rating": 4.5,
    "rating": 4.25,
    "id": 50
  },
  {
    "name": "L'o Vive",
    "tripadvisor_rating": 3.5,
    "price_range": "€€ - €€€",
    "latitude": 43.623665,
    "longitude": 7.098312,
    "cuisines": ["Italian", "French", "Pizza", "Mediterranean", "European"],
    "city": "Biot",
    "address": "329 Rte d'Antibes, 06410 Biot",
    "google_rating": 4.4,
    "rating": 3.95,
    "id": 51
  },
  {
    "name": "L'assiette Nature",
    "tripadvisor_rating": 5,
    "price_range": "€",
    "latitude": 43.6185,
    "longitude": 7.0755,
    "cuisines": ["French", "Healthy"],
    "city": "Biot",
    "address": "200 Av. Roumanille espace 200, 06410 Biot",
    "google_rating": 4.7,
    "rating": 4.85,
    "id": 52
  },
  {
    "name": "Trio Vino",
    "tripadvisor_rating": 4,
    "price_range": "€€ - €€€",
    "latitude": 43.62754,
    "longitude": 7.09743,
    "cuisines": ["French", "Wine Bar"],
    "city": "Biot",
    "address": "2 Imp. des Roses, 06410 Biot",
    "google_rating": 4.5,
    "rating": 4.25,
    "id": 53
  },
  {
    "name": "L'Aliva",
    "tripadvisor_rating": 3.5,
    "price_range": "€€ - €€€",
    "latitude": 43.61806,
    "longitude": 7.074928,
    "cuisines": ["French", "Pizza"],
    "city": "Biot",
    "address": "200 Av. Roumanille, 06410 Biot",
    "google_rating": 3.9,
    "rating": 3.7,
    "id": 54
  },
  {
    "name": "The Green King",
    "tripadvisor_rating": 3.5,
    "price_range": "€€ - €€€",
    "latitude": 43.61869,
    "longitude": 7.075141,
    "cuisines": ["French", "Bar", "Pub", "Gastropub"],
    "city": "Biot",
    "address": "Centre commercial, Av. Roumanille, 06410 Biot",
    "google_rating": 4.3,
    "rating": 3.9,
    "id": 55
  },
  {
    "name": "La Terre Des Templiers",
    "tripadvisor_rating": 4,
    "price_range": "€€ - €€€",
    "latitude": 43.62667,
    "longitude": 7.095364,
    "cuisines": ["French"],
    "city": "Biot",
    "address": "16 Chem. Neuf, 06410 Biot",
    "google_rating": 4.6,
    "rating": 4.3,
    "id": 56
  },
  {
    "name": "Le Chat Restaurant",
    "tripadvisor_rating": 4,
    "price_range": null,
    "latitude": 43.628246,
    "longitude": 7.097435,
    "cuisines": ["Barbecue"],
    "city": "Biot",
    "address": "5 Chem. des Bachettes, 06410 Biot",
    "google_rating": 4.1,
    "rating": 4.05,
    "id": 57
  },
  {
    "name": "Pizza Renato Biot",
    "tripadvisor_rating": 4,
    "price_range": null,
    "latitude": 43.62494,
    "longitude": 7.103081,
    "cuisines": ["Italian", "Pizza"],
    "city": "Biot",
    "address": "495 Rte de la Mer, 06410 Biot",
    "google_rating": 4.5,
    "rating": 4.25,
    "id": 58
  },
  {
    "name": "La Pause",
    "tripadvisor_rating": 4.5,
    "price_range": "€",
    "latitude": 43.62484,
    "longitude": 7.103321,
    "cuisines": ["French"],
    "city": "Biot",
    "address": "School Regional Simone Veil, 1265 Rte de Biot, 06560 Valbonne",
    "google_rating": 5,
    "rating": 4.75,
    "id": 59
  },
  {
    "name": "LES DÉLICES DE LIA",
    "tripadvisor_rating": 4.5,
    "price_range": "€€ - €€€",
    "latitude": 43.627377,
    "longitude": 7.098004,
    "cuisines": ["French"],
    "city": "Biot",
    "address": "3 Rue des Roses, 06410 Biot",
    "google_rating": 4.5,
    "rating": 4.5,
    "id": 60
  },
  {
    "name": "La Villa Des Amandiers",
    "tripadvisor_rating": 3.5,
    "price_range": "€€ - €€€",
    "latitude": 43.623413,
    "longitude": 7.060347,
    "cuisines": ["French", "European"],
    "city": "Biot",
    "address": "260 Rte du Pin Montard, 06410 Biot",
    "google_rating": 4.4,
    "rating": 3.95,
    "id": 61
  },
  {
    "name": "One Sushi",
    "tripadvisor_rating": 5,
    "price_range": null,
    "latitude": 43.62513,
    "longitude": 7.102695,
    "cuisines": [],
    "city": "Biot",
    "address": "495 Rte de la Mer, 06410 Biot",
    "google_rating": 4.9,
    "rating": 4.95,
    "id": 62
  },
  {
    "name": "Mood St Laurent",
    "tripadvisor_rating": 5,
    "price_range": "€€€€",
    "latitude": 43.65732,
    "longitude": 7.184653,
    "cuisines": [
      "Italian",
      "French",
      "Mediterranean",
      "European",
      "Healthy",
      "Gastropub"
    ],
    "city": "Saint-Laurent du Var",
    "address": "Quai la Pérouse, 06700 Saint-Laurent-du-Var",
    "google_rating": 4.7,
    "rating": 4.85,
    "id": 63
  },
  {
    "name": "Le Farci en Bouche",
    "tripadvisor_rating": 5,
    "price_range": "€€ - €€€",
    "latitude": 43.656662,
    "longitude": 7.181317,
    "cuisines": ["French", "Bar", "Mediterranean", "Healthy", "Dining bars"],
    "city": "Saint-Laurent du Var",
    "address": "90 Quai la Pérouse, 06700 Saint-Laurent-du-Var",
    "google_rating": 4.8,
    "rating": 4.9,
    "id": 64
  },
  {
    "name": "Insensé",
    "tripadvisor_rating": 4.5,
    "price_range": "€€ - €€€",
    "latitude": 43.65667,
    "longitude": 7.181221,
    "cuisines": ["Italian", "French", "Contemporary"],
    "city": "Saint-Laurent du Var",
    "address": "420 Quai la Pérouse, 06700 Saint-Laurent-du-Var",
    "google_rating": 4.5,
    "rating": 4.5,
    "id": 65
  },
  {
    "name": "Le Paradis Marin",
    "tripadvisor_rating": 4.5,
    "price_range": "€€ - €€€",
    "latitude": 43.657112,
    "longitude": 7.183113,
    "cuisines": ["French", "Seafood", "Mediterranean", "European"],
    "city": "Saint-Laurent du Var",
    "address": "230 Quai la Pérouse, 06700 Saint-Laurent-du-Var",
    "google_rating": 4.5,
    "rating": 4.5,
    "id": 66
  },
  {
    "name": "Leedy's",
    "tripadvisor_rating": 4.5,
    "price_range": "€€€€",
    "latitude": 43.656967,
    "longitude": 7.182698,
    "cuisines": ["French", "European"],
    "city": "Saint-Laurent du Var",
    "address": "50 Quai la Pérouse, 06700 Saint-Laurent-du-Var",
    "google_rating": 4.5,
    "rating": 4.5,
    "id": 67
  },
  {
    "name": "Les Cocottes Françaises",
    "tripadvisor_rating": 4.5,
    "price_range": "€€€€",
    "latitude": 43.6579,
    "longitude": 7.1892,
    "cuisines": ["French", "Healthy"],
    "city": "Saint-Laurent du Var",
    "address": "167 Prom. des Flots Bleus, 06700 Saint-Laurent-du-Var",
    "google_rating": 4.6,
    "rating": 4.55,
    "id": 68
  },
  {
    "name": "Yamas",
    "tripadvisor_rating": 4.5,
    "price_range": "€€ - €€€",
    "latitude": 43.65955,
    "longitude": 7.19567,
    "cuisines": ["Mediterranean", "Greek", "Healthy"],
    "city": "Saint-Laurent du Var",
    "address": "CAP 3000, 317 Av. Eugène Donadeï, 06700 Saint-Laurent-du-Var",
    "google_rating": 4.7,
    "rating": 4.6,
    "id": 69
  },
  {
    "name": "La Mezzanine",
    "tripadvisor_rating": 4.5,
    "price_range": "€€ - €€€",
    "latitude": 43.67528,
    "longitude": 7.188059,
    "cuisines": ["Italian", "French", "Mediterranean", "European"],
    "city": "Saint-Laurent du Var",
    "address": "47 Cor Fahnestock, 06700 Saint-Laurent-du-Var",
    "google_rating": 4.7,
    "rating": 4.6,
    "id": 70
  },
  {
    "name": "Little Italy",
    "tripadvisor_rating": 4.5,
    "price_range": "€",
    "latitude": 43.660576,
    "longitude": 7.177987,
    "cuisines": ["Italian", "French", "Pizza"],
    "city": "Saint-Laurent du Var",
    "address": "42 Rte des Vespins, 06700 Saint-Laurent-du-Var",
    "google_rating": 4.1,
    "rating": 4.3,
    "id": 71
  },
  {
    "name": "Le Bistro Quai",
    "tripadvisor_rating": 4.5,
    "price_range": "€€ - €€€",
    "latitude": 43.657314,
    "longitude": 7.185053,
    "cuisines": ["French", "European"],
    "city": "Saint-Laurent du Var",
    "address": "Port de Saint Laurent du Var, 06700 Saint-Laurent-du-Var",
    "google_rating": 4.5,
    "rating": 4.5,
    "id": 72
  },
  {
    "name": "La Cabane",
    "tripadvisor_rating": 4,
    "price_range": "€€ - €€€",
    "latitude": 43.657883,
    "longitude": 7.189121,
    "cuisines": ["French", "Mediterranean", "European", "Healthy"],
    "city": "Saint-Laurent du Var",
    "address": "167 Prom. des Flots Bleus, 06700 Saint-Laurent-du-Var",
    "google_rating": 4.4,
    "rating": 4.2,
    "id": 73
  },
  {
    "name": "Tortola",
    "tripadvisor_rating": 4.5,
    "price_range": "€€ - €€€",
    "latitude": 43.657887,
    "longitude": 7.189272,
    "cuisines": ["French", "Mediterranean", "European", "Healthy"],
    "city": "Saint-Laurent du Var",
    "address": "167 Prom. des Flots Bleus, 06700 Saint-Laurent-du-Var",
    "google_rating": 4,
    "rating": 4.25,
    "id": 74
  },
  {
    "name": "Rony's Fils",
    "tripadvisor_rating": 4,
    "price_range": "€€ - €€€",
    "latitude": 43.65552,
    "longitude": 7.180284,
    "cuisines": ["French", "Seafood", "European"],
    "city": "Saint-Laurent du Var",
    "address": "Port, 124 port de plaisance Port de, 06700 Saint-Laurent-du-Var",
    "google_rating": 4.3,
    "rating": 4.15,
    "id": 75
  },
  {
    "name": "Le Sant'ana",
    "tripadvisor_rating": 4.5,
    "price_range": "€€ - €€€",
    "latitude": 43.657024,
    "longitude": 7.182961,
    "cuisines": ["French", "Seafood", "Mediterranean", "European"],
    "city": "Saint-Laurent du Var",
    "address": "Quai la Pérouse Port de, 06700 Saint-Laurent-du-Var",
    "google_rating": 4.6,
    "rating": 4.55,
    "id": 76
  },
  {
    "name": "Vyrus",
    "tripadvisor_rating": 4.5,
    "price_range": "€€ - €€€",
    "latitude": 43.65721,
    "longitude": 7.185514,
    "cuisines": ["French", "Healthy", "Wine Bar", "Gastropub", "Dining bars"],
    "city": "Saint-Laurent du Var",
    "address": "25 Quai la Pérouse, 06700 Saint-Laurent-du-Var",
    "google_rating": 4.5,
    "rating": 4.5,
    "id": 77
  },
  {
    "name": "Le Diveal",
    "tripadvisor_rating": 5,
    "price_range": "€€ - €€€",
    "latitude": 43.673416,
    "longitude": 7.189811,
    "cuisines": ["French", "Barbecue", "Healthy"],
    "city": "Saint-Laurent du Var",
    "address": "36 Quai la Pérouse, 06700 Saint-Laurent-du-Var",
    "google_rating": 4.7,
    "rating": 4.85,
    "id": 78
  },
  {
    "name": "Osaka",
    "tripadvisor_rating": 4.5,
    "price_range": "€€ - €€€",
    "latitude": 43.656834,
    "longitude": 7.182333,
    "cuisines": ["Japanese", "Sushi", "Asian"],
    "city": "Saint-Laurent du Var",
    "address": "290 Quai la Pérouse, 06700 Saint-Laurent-du-Var",
    "google_rating": 4.7,
    "rating": 4.6,
    "id": 79
  },
  {
    "name": "Saint Laurent Cafe",
    "tripadvisor_rating": 5,
    "price_range": "€",
    "latitude": 43.666683,
    "longitude": 7.187344,
    "cuisines": ["French", "European"],
    "city": "Saint-Laurent du Var",
    "address": "85 Av. Marc Moschetti, 06700 Saint-Laurent-du-Var",
    "google_rating": 4.6,
    "rating": 4.8,
    "id": 80
  },
  {
    "name": "Kashmir",
    "tripadvisor_rating": 4,
    "price_range": "€€ - €€€",
    "latitude": 43.657837,
    "longitude": 7.187553,
    "cuisines": ["Indian"],
    "city": "Saint-Laurent du Var",
    "address": "167 Prom. des Flots Bleus, 06700 Saint-Laurent-du-Var",
    "google_rating": 4.2,
    "rating": 4.1,
    "id": 81
  },
  {
    "name": "Chez Mme Phok",
    "tripadvisor_rating": 4,
    "price_range": "€€ - €€€",
    "latitude": 43.659595,
    "longitude": 7.193127,
    "cuisines": ["Chinese", "Asian", "Vietnamese"],
    "city": "Saint-Laurent du Var",
    "address": "1 Av. Léon Bérenger, 06700 Saint-Laurent-du-Var",
    "google_rating": 4.4,
    "rating": 4.2,
    "id": 82
  },
  {
    "name": "Beach Club Saint laurent du var",
    "tripadvisor_rating": 4,
    "price_range": "€€ - €€€",
    "latitude": 43.657475,
    "longitude": 7.186248,
    "cuisines": ["French", "Bar", "Mediterranean", "European"],
    "city": "Saint-Laurent du Var",
    "address": "2 Prom. des Flots Bleus, 06700 Saint-Laurent-du-Var",
    "google_rating": 3.9,
    "rating": 3.95,
    "id": 83
  },
  {
    "name": "Les Jardins d'Agadir",
    "tripadvisor_rating": 4,
    "price_range": "€€ - €€€",
    "latitude": 43.65713,
    "longitude": 7.183208,
    "cuisines": ["Moroccan", "Mediterranean", "Middle Eastern"],
    "city": "Saint-Laurent du Var",
    "address": "38 Quai la Pérouse, 06700 Saint-Laurent-du-Var",
    "google_rating": 4.3,
    "rating": 4.15,
    "id": 84
  },
  {
    "name": "La Bella Italia",
    "tripadvisor_rating": 5,
    "price_range": "€€ - €€€",
    "latitude": 43.67311,
    "longitude": 7.190176,
    "cuisines": ["Italian", "Bar", "Cafe", "Mediterranean"],
    "city": "Saint-Laurent du Var",
    "address": "133 Av. du Général Leclerc, 06700 Saint-Laurent-du-Var",
    "google_rating": 4.7,
    "rating": 4.85,
    "id": 85
  },
  {
    "name": "La Maison De L'Entrecôte",
    "tripadvisor_rating": 3.5,
    "price_range": "€€ - €€€",
    "latitude": 43.65878,
    "longitude": 7.186592,
    "cuisines": ["French", "Steakhouse", "Barbecue", "European"],
    "city": "Saint-Laurent du Var",
    "address": "23 Quai la Pérouse Port de, 06700 Saint-Laurent-du-Var",
    "google_rating": 4.2,
    "rating": 3.85,
    "id": 86
  },
  {
    "name": "Casa Luna",
    "tripadvisor_rating": 4,
    "price_range": "€€ - €€€",
    "latitude": 43.657757,
    "longitude": 7.18871,
    "cuisines": ["Italian", "French", "Wine Bar"],
    "city": "Saint-Laurent du Var",
    "address": "167 Prom. des Flots Bleus, 06700 Saint-Laurent-du-Var",
    "google_rating": 3.8,
    "rating": 3.9,
    "id": 87
  },
  {
    "name": "Voile Rouge",
    "tripadvisor_rating": 4,
    "price_range": "€€ - €€€",
    "latitude": 43.657787,
    "longitude": 7.18644,
    "cuisines": ["French", "European", "Grill", "Gastropub"],
    "city": "Saint-Laurent du Var",
    "address": "167 Prom. des Flots Bleus, 06700 Saint-Laurent-du-Var",
    "google_rating": 4.2,
    "rating": 4.1,
    "id": 88
  },
  {
    "name": "Le Plaisance",
    "tripadvisor_rating": 4,
    "price_range": "€€ - €€€",
    "latitude": 43.655884,
    "longitude": 7.180197,
    "cuisines": ["French", "Mediterranean"],
    "city": "Saint-Laurent du Var",
    "address": "Quai la Pérouse, 06700 Saint-Laurent-du-Var",
    "google_rating": 4.5,
    "rating": 4.25,
    "id": 89
  },
  {
    "name": "Chez Max",
    "tripadvisor_rating": 4,
    "price_range": "€",
    "latitude": 43.657814,
    "longitude": 7.188331,
    "cuisines": ["French", "American", "European"],
    "city": "Saint-Laurent du Var",
    "address": "167 Prom. des Flots Bleus, 06700 Saint-Laurent-du-Var",
    "google_rating": 4.2,
    "rating": 4.1,
    "id": 90
  },
  {
    "name": "Crêperie La Gourmandise",
    "tripadvisor_rating": 4,
    "price_range": "€€ - €€€",
    "latitude": 43.656944,
    "longitude": 7.182513,
    "cuisines": ["French", "European"],
    "city": "Saint-Laurent du Var",
    "address": "Port de Plaisance, 56 Quai la Pérouse, 06700 Saint-Laurent-du-Var",
    "google_rating": 4.3,
    "rating": 4.15,
    "id": 91
  },
  {
    "name": "Tribeca Cap 3000",
    "tripadvisor_rating": 4,
    "price_range": "€€ - €€€",
    "latitude": 43.657303,
    "longitude": 7.197744,
    "cuisines": ["French", "Bar", "Barbecue", "Healthy"],
    "city": "Saint-Laurent du Var",
    "address": "CC Cap3000, Av. Eugène Donadeï, 06700 Saint-Laurent-du-Var",
    "google_rating": 4.7,
    "rating": 4.35,
    "id": 92
  },
  {
    "name": "La Fighière",
    "tripadvisor_rating": 4.5,
    "price_range": "€€ - €€€",
    "latitude": 43.63736,
    "longitude": 7.139883,
    "cuisines": ["French", "Mediterranean"],
    "city": "Villeneuve-Loubet",
    "address": "Bd Eric Tabarly, 06270 Villeneuve-Loubet",
    "google_rating": 4.2,
    "rating": 4.35,
    "id": 93
  },
  {
    "name": "L'Auberge Fleurie",
    "tripadvisor_rating": 4,
    "price_range": "€€ - €€€",
    "latitude": 43.65822,
    "longitude": 7.1225,
    "cuisines": ["French", "Mediterranean", "European"],
    "city": "Villeneuve-Loubet",
    "address": "11 Rue des Mesures, 06270 Villeneuve-Loubet",
    "google_rating": 4.5,
    "rating": 4.25,
    "id": 94
  },
  {
    "name": "La Flibuste",
    "tripadvisor_rating": 4.5,
    "price_range": "€€€€",
    "latitude": 43.634624,
    "longitude": 7.136565,
    "cuisines": ["French", "Mediterranean", "European"],
    "city": "Villeneuve-Loubet",
    "address": "1001 Av. de la Batterie, 06270 Villeneuve-Loubet",
    "google_rating": 4.8,
    "rating": 4.65,
    "id": 95
  },
  {
    "name": "Pizzatti",
    "tripadvisor_rating": 4.5,
    "price_range": "€€ - €€€",
    "latitude": 43.641376,
    "longitude": 7.142522,
    "cuisines": ["Italian", "Pizza", "European"],
    "city": "Villeneuve-Loubet",
    "address": "1 All. de la Plage, 06270 Villeneuve-Loubet",
    "google_rating": 4.4,
    "rating": 4.45,
    "id": 96
  },
  {
    "name": "Au Garcon Boucher",
    "tripadvisor_rating": 4.5,
    "price_range": "€€ - €€€",
    "latitude": 43.65851,
    "longitude": 7.121966,
    "cuisines": ["French", "Mediterranean", "European"],
    "city": "Villeneuve-Loubet",
    "address": "4 Pl. de Verdun, 06270 Villeneuve-Loubet",
    "google_rating": 4.5,
    "rating": 4.5,
    "id": 97
  },
  {
    "name": "La Cabane De Villeneuve-Loubet",
    "tripadvisor_rating": 4,
    "price_range": "€€ - €€€",
    "latitude": 43.62993,
    "longitude": 7.134949,
    "cuisines": ["French", "Mediterranean", "Healthy"],
    "city": "Villeneuve-Loubet",
    "address": "1523 Av. de la Batterie, 06270 Villeneuve-Loubet",
    "google_rating": 4.4,
    "rating": 4.2,
    "id": 98
  },
  {
    "name": "Villa Marina",
    "tripadvisor_rating": 4,
    "price_range": "€€ - €€€",
    "latitude": 43.635857,
    "longitude": 7.136092,
    "cuisines": ["Italian", "French", "Mediterranean", "European"],
    "city": "Villeneuve-Loubet",
    "address": "Av. de la Batterie, 06270 Villeneuve-Loubet",
    "google_rating": 4.3,
    "rating": 4.15,
    "id": 99
  },
  {
    "name": "Pink Lotus",
    "tripadvisor_rating": 4,
    "price_range": "€€ - €€€",
    "latitude": 43.636307,
    "longitude": 7.137716,
    "cuisines": ["Chinese", "Asian", "Thai", "Vietnamese"],
    "city": "Villeneuve-Loubet",
    "address": "1001 Av. de la Batterie, 06270 Villeneuve-Loubet",
    "google_rating": 4.2,
    "rating": 4.1,
    "id": 100
  },
  {
    "name": "L'indigo",
    "tripadvisor_rating": 4.5,
    "price_range": "€€ - €€€",
    "latitude": 43.63656,
    "longitude": 7.139579,
    "cuisines": ["French", "Bar", "Mediterranean", "European", "Healthy"],
    "city": "Villeneuve-Loubet",
    "address": "residence de la mer, 397 Bd Eric Tabarly, 06270 Villeneuve-Loubet",
    "google_rating": 4.6,
    "rating": 4.55,
    "id": 101
  },
  {
    "name": "Le Bon Accueil",
    "tripadvisor_rating": 4.5,
    "price_range": "€€ - €€€",
    "latitude": 43.65754,
    "longitude": 7.121694,
    "cuisines": ["French", "Healthy"],
    "city": "Villeneuve-Loubet",
    "address": "2 Av. de la Liberté, 06270 Villeneuve-Loubet",
    "google_rating": 4.7,
    "rating": 4.6,
    "id": 102
  },
  {
    "name": "Santa Lucia",
    "tripadvisor_rating": 3.5,
    "price_range": "€€ - €€€",
    "latitude": 43.635555,
    "longitude": 7.136401,
    "cuisines": ["Italian", "French", "Mediterranean", "European"],
    "city": "Villeneuve-Loubet",
    "address": "Port de Marina - Baie des Anges, 06270 Villeneuve-Loubet",
    "google_rating": 3.8,
    "rating": 3.65,
    "id": 103
  },
  {
    "name": "Palm Cafe",
    "tripadvisor_rating": 4.5,
    "price_range": "€€ - €€€",
    "latitude": 43.6363,
    "longitude": 7.138739,
    "cuisines": ["French", "American", "Cafe"],
    "city": "Villeneuve-Loubet",
    "address": "1001 Avenue de la Batterie, Croisette André Minangoy, 06270 Villeneuve-Loubet",
    "google_rating": 4.4,
    "rating": 4.45,
    "id": 104
  },
  {
    "name": "Restaurant La Playa",
    "tripadvisor_rating": 4,
    "price_range": "€€ - €€€",
    "latitude": 43.636215,
    "longitude": 7.139633,
    "cuisines": ["French", "Seafood", "Mediterranean", "Grill", "Fusion"],
    "city": "Villeneuve-Loubet",
    "address": "397 Bd Eric Tabarly, 06270 Villeneuve-Loubet",
    "google_rating": 4.1,
    "rating": 4.05,
    "id": 105
  },
  {
    "name": "Le Dragon d'Or",
    "tripadvisor_rating": 3.5,
    "price_range": "€€ - €€€",
    "latitude": 43.6265,
    "longitude": 7.132499,
    "cuisines": ["Chinese", "Asian", "Vietnamese"],
    "city": "Villeneuve-Loubet",
    "address": "2601 RN 7, 06270 Villeneuve-Loubet",
    "google_rating": 4,
    "rating": 3.75,
    "id": 106
  },
  {
    "name": "Ô Visconte",
    "tripadvisor_rating": 4,
    "price_range": "€€ - €€€",
    "latitude": 43.657288,
    "longitude": 7.121833,
    "cuisines": ["French", "Mediterranean", "European"],
    "city": "Villeneuve-Loubet",
    "address": "1 Av. de la Libération, 06270 Villeneuve-Loubet",
    "google_rating": 4.3,
    "rating": 4.15,
    "id": 107
  },
  {
    "name": "La Voile Blanche",
    "tripadvisor_rating": 5,
    "price_range": "€€ - €€€",
    "latitude": 43.65789,
    "longitude": 7.122337,
    "cuisines": ["French"],
    "city": "Villeneuve-Loubet",
    "address": "1001 Av. de la Batterie, 06270 Villeneuve-Loubet",
    "google_rating": 4.3,
    "rating": 4.65,
    "id": 108
  },
  {
    "name": "Le Syracuse",
    "tripadvisor_rating": 3.5,
    "price_range": "€€ - €€€",
    "latitude": 43.637833,
    "longitude": 7.140417,
    "cuisines": ["French", "European"],
    "city": "Villeneuve-Loubet",
    "address": "215 Bd Eric Tabarly, 06270 Villeneuve-Loubet",
    "google_rating": 4,
    "rating": 3.75,
    "id": 109
  },
  {
    "name": "Beach Klubber",
    "tripadvisor_rating": 4,
    "price_range": "€€ - €€€",
    "latitude": 43.62776,
    "longitude": 7.13407,
    "cuisines": ["French", "European"],
    "city": "Villeneuve-Loubet",
    "address": "1321 Rte du Bord de Mer, 06270 Villeneuve-Loubet",
    "google_rating": 4.3,
    "rating": 4.15,
    "id": 110
  },
  {
    "name": "Le Majorelle",
    "tripadvisor_rating": 4,
    "price_range": "€€ - €€€",
    "latitude": 43.636654,
    "longitude": 7.136858,
    "cuisines": ["Moroccan", "Mediterranean", "Healthy", "Middle Eastern"],
    "city": "Villeneuve-Loubet",
    "address": "Av. de la Batterie, 06270 Villeneuve-Loubet",
    "google_rating": 4.2,
    "rating": 4.1,
    "id": 111
  },
  {
    "name": "Le Mombasa beach",
    "tripadvisor_rating": 4.5,
    "price_range": "€",
    "latitude": 43.631264,
    "longitude": 7.134816,
    "cuisines": ["French"],
    "city": "Villeneuve-Loubet",
    "address": "1321 Rte du Bord de Mer, 06270 Villeneuve-Loubet",
    "google_rating": 4.7,
    "rating": 4.6,
    "id": 112
  },
  {
    "name": "Brasserie Les Touristes",
    "tripadvisor_rating": 4.5,
    "price_range": "€€ - €€€",
    "latitude": 43.62797,
    "longitude": 7.13305,
    "cuisines": [
      "French",
      "Brew Pub",
      "Bar",
      "Mediterranean",
      "Barbecue",
      "European"
    ],
    "city": "Villeneuve-Loubet",
    "address": "2411 Route Départementale, 06270 Villeneuve-Loubet",
    "google_rating": 4.5,
    "rating": 4.5,
    "id": 113
  },
  {
    "name": "Rdv Gourmand",
    "tripadvisor_rating": 4.5,
    "price_range": "€€ - €€€",
    "latitude": 43.636166,
    "longitude": 7.138284,
    "cuisines": ["French", "Healthy", "Dining bars"],
    "city": "Villeneuve-Loubet",
    "address": "Port marina bat b le, Ducal, 06270 Villeneuve-Loubet",
    "google_rating": 4,
    "rating": 4.25,
    "id": 114
  },
  {
    "name": "Le Victoria",
    "tripadvisor_rating": 4.5,
    "price_range": "€€ - €€€",
    "latitude": 43.6349,
    "longitude": 7.1366,
    "cuisines": ["French", "Mediterranean"],
    "city": "Villeneuve-Loubet",
    "address": "108 Av. de la Batterie, 06270 Villeneuve-Loubet",
    "google_rating": 4.3,
    "rating": 4.4,
    "id": 115
  },
  {
    "name": "Family's Brunch & Cocktails",
    "tripadvisor_rating": 4.5,
    "price_range": "€€ - €€€",
    "latitude": 43.634186,
    "longitude": 7.138296,
    "cuisines": ["French", "Cafe", "British"],
    "city": "Villeneuve-Loubet",
    "address": "Le Ducal, Port Marina Baie des Anges, 06270 Villeneuve-Loubet",
    "google_rating": 4.6,
    "rating": 4.55,
    "id": 116
  },
  {
    "name": "Mets Divins",
    "tripadvisor_rating": 4.5,
    "price_range": "€€ - €€€",
    "latitude": 43.66578,
    "longitude": 7.122197,
    "cuisines": ["French", "European", "Wine Bar"],
    "city": "Villeneuve-Loubet",
    "address": "369 Av. de la Colle, 06270 Villeneuve-Loubet",
    "google_rating": null,
    "rating": 4.5,
    "id": 117
  },
  {
    "name": "Mia Beach Villeneuve Loubet",
    "tripadvisor_rating": 4,
    "price_range": null,
    "latitude": 43.65806,
    "longitude": 7.12139,
    "cuisines": ["French"],
    "city": "Villeneuve-Loubet",
    "address": "Port Marina Baie des Anges, La Capitanerie, 06270 Villeneuve-Loubet",
    "google_rating": 3.9,
    "rating": 3.95,
    "id": 118
  },
  {
    "name": "Chez Nous",
    "tripadvisor_rating": 4.5,
    "price_range": "€",
    "latitude": 43.642555,
    "longitude": 7.14307,
    "cuisines": ["French", "Healthy"],
    "city": "Villeneuve-Loubet",
    "address": "44 Rte du Bord de Mer, 06270 Villeneuve-Loubet",
    "google_rating": 4.2,
    "rating": 4.35,
    "id": 119
  },
  {
    "name": "Kow Long",
    "tripadvisor_rating": 3.5,
    "price_range": "€€ - €€€",
    "latitude": 43.641598,
    "longitude": 7.142046,
    "cuisines": ["Chinese", "Japanese", "Asian", "Thai", "Vietnamese"],
    "city": "Villeneuve-Loubet",
    "address": "2 Av. de Provence, 06270 Villeneuve-Loubet",
    "google_rating": 3.8,
    "rating": 3.65,
    "id": 120
  },
  {
    "name": "Villa Azur",
    "tripadvisor_rating": 4.5,
    "price_range": "€€€€",
    "latitude": 43.63105,
    "longitude": 7.135886,
    "cuisines": ["French", "Seafood", "Mediterranean", "European"],
    "city": "Villeneuve-Loubet",
    "address": "1399 Av. de la Batterie, 06270 Villeneuve-Loubet",
    "google_rating": 4.3,
    "rating": 4.4,
    "id": 121
  },
  {
    "name": "Mas Sushi & Poke Bowl",
    "tripadvisor_rating": 4.5,
    "price_range": "€€ - €€€",
    "latitude": 43.636364,
    "longitude": 7.136271,
    "cuisines": ["Japanese", "Sushi"],
    "city": "Villeneuve-Loubet",
    "address": "Port Marina Baie Des Anges, 1001 Av. de la Batterie, 06270 Villeneuve-Loubet",
    "google_rating": 4.7,
    "rating": 4.6,
    "id": 122
  },
  {
    "name": "Vivo",
    "tripadvisor_rating": 5,
    "price_range": "€€ - €€€",
    "latitude": 43.657776,
    "longitude": 7.167374,
    "cuisines": ["French", "Healthy"],
    "city": "Cagnes sur Mer",
    "address": "95 Prom. de la Plage, 06800 Cagnes-sur-Mer",
    "google_rating": 4.6,
    "rating": 4.8,
    "id": 123
  },
  {
    "name": "Fleur de Sel",
    "tripadvisor_rating": 4.5,
    "price_range": "€€€€",
    "latitude": 43.66648,
    "longitude": 7.145534,
    "cuisines": ["French", "European", "Healthy"],
    "city": "Cagnes sur Mer",
    "address": "85 Mnt de la Bourgade, 06800 Cagnes-sur-Mer",
    "google_rating": 4.8,
    "rating": 4.65,
    "id": 124
  },
  {
    "name": "Le Bistrot de la Marine",
    "tripadvisor_rating": 4.5,
    "price_range": "€€€€",
    "latitude": 43.657913,
    "longitude": 7.167509,
    "cuisines": ["French", "Mediterranean", "European", "Healthy"],
    "city": "Cagnes sur Mer",
    "address": "96 Prom. de la Plage, 06800 Cagnes-sur-Mer",
    "google_rating": 4.6,
    "rating": 4.55,
    "id": 125
  },
  {
    "name": "Cararocca",
    "tripadvisor_rating": 4.5,
    "price_range": "€€ - €€€",
    "latitude": 43.65774,
    "longitude": 7.167136,
    "cuisines": ["French", "Mediterranean", "European", "Healthy"],
    "city": "Cagnes sur Mer",
    "address": "92 Prom. de la Plage, 06800 Cagnes-sur-Mer",
    "google_rating": 4.5,
    "rating": 4.5,
    "id": 126
  },
  {
    "name": "L'agapè",
    "tripadvisor_rating": 5,
    "price_range": "€€€€",
    "latitude": 43.655785,
    "longitude": 7.161615,
    "cuisines": ["French", "Healthy"],
    "city": "Cagnes sur Mer",
    "address": "48 Prom. de la Plage, 06800 Cagnes-sur-Mer",
    "google_rating": 5,
    "rating": 5.0,
    "id": 127
  },
  {
    "name": "Forno di Napoli",
    "tripadvisor_rating": 4.5,
    "price_range": "€€ - €€€",
    "latitude": 43.658703,
    "longitude": 7.165042,
    "cuisines": [
      "Italian",
      "Pizza",
      "Mediterranean",
      "Neapolitan",
      "Campania",
      "Southern-Italian"
    ],
    "city": "Cagnes sur Mer",
    "address": "22 Av. des Oliviers, 06800 Cagnes-sur-Mer",
    "google_rating": 4.2,
    "rating": 4.35,
    "id": 128
  },
  {
    "name": "Restaurant Les Baux",
    "tripadvisor_rating": 4.5,
    "price_range": "€€ - €€€",
    "latitude": 43.66733,
    "longitude": 7.145619,
    "cuisines": ["French", "European"],
    "city": "Cagnes sur Mer",
    "address": "2 Pl. du Château, 06800 Cagnes-sur-Mer",
    "google_rating": 4.7,
    "rating": 4.6,
    "id": 129
  },
  {
    "name": "La Table de Kamiya",
    "tripadvisor_rating": 5,
    "price_range": "€€€€",
    "latitude": 43.656174,
    "longitude": 7.162216,
    "cuisines": ["French", "Healthy"],
    "city": "Cagnes sur Mer",
    "address": "52 Prom. de la Plage, 06800 Cagnes-sur-Mer",
    "google_rating": 4.9,
    "rating": 4.95,
    "id": 130
  },
  {
    "name": "Le Vietnam",
    "tripadvisor_rating": 4.5,
    "price_range": "€€ - €€€",
    "latitude": 43.659256,
    "longitude": 7.166909,
    "cuisines": ["Chinese", "Asian", "Vietnamese"],
    "city": "Cagnes sur Mer",
    "address": "108 Av. de Nice, 06800 Cagnes-sur-Mer",
    "google_rating": 4.7,
    "rating": 4.6,
    "id": 131
  },
  {
    "name": "La Zagara",
    "tripadvisor_rating": 4.5,
    "price_range": "€€ - €€€",
    "latitude": 43.65391,
    "longitude": 7.151662,
    "cuisines": [
      "Italian",
      "Pizza",
      "Seafood",
      "Mediterranean",
      "Healthy",
      "Sicilian",
      "Southern-Italian"
    ],
    "city": "Cagnes sur Mer",
    "address": "9 Bd J F Kennedy, 06800 Cagnes-sur-Mer",
    "google_rating": 4.7,
    "rating": 4.6,
    "id": 132
  },
  {
    "name": "Restaurant Le Village - Haut De Cagnes",
    "tripadvisor_rating": 4,
    "price_range": "€€ - €€€",
    "latitude": 43.667282,
    "longitude": 7.145697,
    "cuisines": ["French", "Mediterranean"],
    "city": "Cagnes sur Mer",
    "address": "4 Pl. du Château, 06800 Cagnes-sur-Mer",
    "google_rating": 4.2,
    "rating": 4.1,
    "id": 133
  },
  {
    "name": "Villa Foggia",
    "tripadvisor_rating": 4.5,
    "price_range": "€€€€",
    "latitude": 43.65716,
    "longitude": 7.1717,
    "cuisines": ["French"],
    "city": "Cagnes sur Mer",
    "address": "5 Rue du Capitaine de Frégate Hippolyte Vial, 06800 Cagnes-sur-Mer",
    "google_rating": 4.5,
    "rating": 4.5,
    "id": 134
  },
  {
    "name": "Le Jardin Gourmand",
    "tripadvisor_rating": 3.5,
    "price_range": "€€ - €€€",
    "latitude": 43.654377,
    "longitude": 7.15729,
    "cuisines": ["French", "Mediterranean", "Diner", "Healthy", "Dining bars"],
    "city": "Cagnes sur Mer",
    "address": "22 Prom. de la Plage, 06800 Cagnes-sur-Mer",
    "google_rating": 4,
    "rating": 3.75,
    "id": 135
  },
  {
    "name": "La Piazza",
    "tripadvisor_rating": 4,
    "price_range": "€€ - €€€",
    "latitude": 43.66401,
    "longitude": 7.128715,
    "cuisines": ["Italian"],
    "city": "Cagnes sur Mer",
    "address": "119 Av. des Alpes, 06800 Cagnes-sur-Mer",
    "google_rating": 4,
    "rating": 4.0,
    "id": 136
  },
  {
    "name": "Lebanon",
    "tripadvisor_rating": 4.5,
    "price_range": "€€ - €€€",
    "latitude": 43.6526,
    "longitude": 7.154477,
    "cuisines": ["Lebanese", "Mediterranean", "Middle Eastern"],
    "city": "Cagnes sur Mer",
    "address": "7 Prom. de la Plage, 06800 Cagnes-sur-Mer",
    "google_rating": 4.6,
    "rating": 4.55,
    "id": 137
  },
  {
    "name": "Le Cigalon Plage",
    "tripadvisor_rating": 4,
    "price_range": "€€ - €€€",
    "latitude": 43.656147,
    "longitude": 7.163444,
    "cuisines": ["French", "Bar", "Mediterranean", "European"],
    "city": "Cagnes sur Mer",
    "address": "59 ter, Prom. de la Plage, 06800 Cagnes-sur-Mer",
    "google_rating": 4.2,
    "rating": 4.1,
    "id": 138
  },
  {
    "name": "Gusto",
    "tripadvisor_rating": 4,
    "price_range": "€€ - €€€",
    "latitude": 43.6576,
    "longitude": 7.167004,
    "cuisines": ["Italian", "Mediterranean", "European"],
    "city": "Cagnes sur Mer",
    "address": "91 Prom. de la Plage, 06800 Cagnes-sur-Mer",
    "google_rating": 4.2,
    "rating": 4.1,
    "id": 139
  },
  {
    "name": "Restaurant Le Grimaldi",
    "tripadvisor_rating": 4.5,
    "price_range": "€€ - €€€",
    "latitude": 43.66732,
    "longitude": 7.145796,
    "cuisines": ["French", "Mediterranean", "European"],
    "city": "Cagnes sur Mer",
    "address": "6 Pl. du Château, 06800 Cagnes-sur-Mer",
    "google_rating": 4.4,
    "rating": 4.45,
    "id": 140
  },
  {
    "name": "Charlot 1er",
    "tripadvisor_rating": 3.5,
    "price_range": "€€€€",
    "latitude": 43.657585,
    "longitude": 7.166611,
    "cuisines": ["French", "Seafood", "Mediterranean"],
    "city": "Cagnes sur Mer",
    "address": "87 Prom. de la Plage, 06800 Cagnes-sur-Mer",
    "google_rating": 4.1,
    "rating": 3.8,
    "id": 141
  },
  {
    "name": "Brasserie Julien",
    "tripadvisor_rating": 4,
    "price_range": "€€ - €€€",
    "latitude": 43.665466,
    "longitude": 7.127075,
    "cuisines": ["French", "Bar"],
    "city": "Cagnes sur Mer",
    "address": "Polygone Riviera, 119 Av. des Alpes, 06800 Cagnes-sur-Mer",
    "google_rating": 3.9,
    "rating": 3.95,
    "id": 142
  },
  {
    "name": "Restaurant Le Perousin",
    "tripadvisor_rating": 4.5,
    "price_range": "€€ - €€€",
    "latitude": 43.66595,
    "longitude": 7.146258,
    "cuisines": ["French", "Mediterranean", "European"],
    "city": "Cagnes sur Mer",
    "address": "4 Rue Hippolyte Guis, 06800 Cagnes-sur-Mer",
    "google_rating": 4.4,
    "rating": 4.45,
    "id": 143
  },
  {
    "name": "Chez David",
    "tripadvisor_rating": 4.5,
    "price_range": "€€ - €€€",
    "latitude": 43.663036,
    "longitude": 7.149418,
    "cuisines": ["French", "Mediterranean", "European"],
    "city": "Cagnes sur Mer",
    "address": "6 Rue Général Bérenger, 06800 Cagnes-sur-Mer",
    "google_rating": 4.6,
    "rating": 4.55,
    "id": 144
  },
  {
    "name": "Le Petit Nicois Bio",
    "tripadvisor_rating": 4.5,
    "price_range": "€€ - €€€",
    "latitude": 43.657764,
    "longitude": 7.16836,
    "cuisines": ["French", "Mediterranean", "Healthy"],
    "city": "Cagnes sur Mer",
    "address": "99 Prom. de la Plage, 06800 Cagnes-sur-Mer",
    "google_rating": 4.7,
    "rating": 4.6,
    "id": 145
  },
  {
    "name": "Restaurant Le Maestro",
    "tripadvisor_rating": 4.5,
    "price_range": "€",
    "latitude": 43.665413,
    "longitude": 7.15395,
    "cuisines": ["French", "Pizza", "European"],
    "city": "Cagnes sur Mer",
    "address": "2 Av. de la Gaude, 06800 Cagnes-sur-Mer",
    "google_rating": 4.5,
    "rating": 4.5,
    "id": 146
  },
  {
    "name": "Carre bleu",
    "tripadvisor_rating": 3.5,
    "price_range": "€€ - €€€",
    "latitude": 43.656532,
    "longitude": 7.164237,
    "cuisines": ["French", "Mediterranean", "European"],
    "city": "Cagnes sur Mer",
    "address": "61 Ter Prom. de la Plage, 06800 Cagnes-sur-Mer",
    "google_rating": 4,
    "rating": 3.75,
    "id": 147
  },
  {
    "name": "Pizza Cros",
    "tripadvisor_rating": 4.5,
    "price_range": "€",
    "latitude": 43.65911,
    "longitude": 7.165273,
    "cuisines": ["Italian", "Pizza"],
    "city": "Cagnes sur Mer",
    "address": "98 Av. de Nice, 06800 Cagnes-sur-Mer",
    "google_rating": 4.6,
    "rating": 4.55,
    "id": 148
  },
  {
    "name": "La Brasserie",
    "tripadvisor_rating": 5,
    "price_range": "€",
    "latitude": 43.65911,
    "longitude": 7.16506,
    "cuisines": ["French", "Bar", "Mediterranean", "European", "Pub"],
    "city": "Cagnes sur Mer",
    "address": "28 Av. des Oliviers, 06800 Cagnes-sur-Mer",
    "google_rating": 4.9,
    "rating": 4.95,
    "id": 149
  },
  {
    "name": "Café Pourquoi Pas",
    "tripadvisor_rating": 4,
    "price_range": "€€ - €€€",
    "latitude": 43.656647,
    "longitude": 7.163511,
    "cuisines": ["Italian", "French", "Mediterranean", "European"],
    "city": "Cagnes sur Mer",
    "address": "61 Prom. de la Plage, 06800 Cagnes-sur-Mer",
    "google_rating": 4.1,
    "rating": 4.05,
    "id": 150
  },
  {
    "name": "Aya Sushi",
    "tripadvisor_rating": 4.5,
    "price_range": "€€ - €€€",
    "latitude": 43.664288,
    "longitude": 7.171439,
    "cuisines": ["Japanese", "Sushi", "Asian"],
    "city": "Cagnes sur Mer",
    "address": "116 Av. des Chênes, 06800 Cagnes-sur-Mer",
    "google_rating": 4.6,
    "rating": 4.55,
    "id": 151
  },
  {
    "name": "La Table Niçoise",
    "tripadvisor_rating": 4,
    "price_range": "€€ - €€€",
    "latitude": 43.663944,
    "longitude": 7.128735,
    "cuisines": ["French", "Mediterranean", "European"],
    "city": "Cagnes sur Mer",
    "address": "119 Av. des Alpes, 06800 Cagnes-sur-Mer",
    "google_rating": 3.9,
    "rating": 3.95,
    "id": 152
  },
  {
    "name": "La Cucina Nice",
    "tripadvisor_rating": 5,
    "price_range": "€€ - €€€",
    "latitude": 43.696335,
    "longitude": 7.264743,
    "cuisines": ["Italian", "French", "Mediterranean", "European", "Healthy"],
    "city": "Nice",
    "address": "9 Rue du Commandant Raffalli, 06000 Nice",
    "google_rating": 4.7,
    "rating": 4.85,
    "id": 153
  },
  {
    "name": "La Route Du Miam",
    "tripadvisor_rating": 5,
    "price_range": "€€ - €€€",
    "latitude": 43.713654,
    "longitude": 7.261418,
    "cuisines": ["French"],
    "city": "Nice",
    "address": "1 Rue Molière, 06100 Nice",
    "google_rating": 4.7,
    "rating": 4.85,
    "id": 154
  },
  {
    "name": "L'Alchimie Restaurant",
    "tripadvisor_rating": 5,
    "price_range": "€€ - €€€",
    "latitude": 43.698967,
    "longitude": 7.26452,
    "cuisines": ["French", "Mediterranean", "Healthy"],
    "city": "Nice",
    "address": "14 Rue Maccarani, 06000 Nice",
    "google_rating": 4.9,
    "rating": 4.95,
    "id": 155
  },
  {
    "name": "Renée ",
    "tripadvisor_rating": 4.5,
    "price_range": "€€ - €€€",
    "latitude": 43.69498,
    "longitude": 7.262016,
    "cuisines": ["French", "Mediterranean", "European"],
    "city": "Nice",
    "address": "19 Prom. des Anglais, 06000 Nice",
    "google_rating": 4.3,
    "rating": 4.4,
    "id": 156
  },
  {
    "name": "La Table De Nathalie",
    "tripadvisor_rating": 5,
    "price_range": "€€ - €€€",
    "latitude": 43.6956,
    "longitude": 7.264385,
    "cuisines": ["Italian", "French", "Mediterranean", "European", "Healthy"],
    "city": "Nice",
    "address": "6 Rue Massenet, 06000 Nice",
    "google_rating": 5,
    "rating": 5.0,
    "id": 157
  },
  {
    "name": "Le Banthai",
    "tripadvisor_rating": 4.5,
    "price_range": "€€ - €€€",
    "latitude": 43.697056,
    "longitude": 7.277169,
    "cuisines": ["Asian", "Thai", "Healthy"],
    "city": "Nice",
    "address": "29 Rue Droite, 06300 Nice",
    "google_rating": 4.5,
    "rating": 4.5,
    "id": 158
  },
  {
    "name": "Le Plongeoir",
    "tripadvisor_rating": 4,
    "price_range": "€€ - €€€",
    "latitude": 43.691902,
    "longitude": 7.290906,
    "cuisines": ["French", "Mediterranean", "European", "Healthy"],
    "city": "Nice",
    "address": "60 Bd Franck Pilatte, 06300 Nice",
    "google_rating": 4.3,
    "rating": 4.15,
    "id": 159
  },
  {
    "name": "Bocca Nissa",
    "tripadvisor_rating": 4,
    "price_range": "€€ - €€€",
    "latitude": 43.695847,
    "longitude": 7.273014,
    "cuisines": [
      "Italian",
      "French",
      "Mediterranean",
      "Healthy",
      "Dining bars"
    ],
    "city": "Nice",
    "address": "3 Rue Saint-François de Paule, 06300 Nice",
    "google_rating": 4.3,
    "rating": 4.15,
    "id": 160
  },
  {
    "name": "L'Antica",
    "tripadvisor_rating": 4.5,
    "price_range": "€€ - €€€",
    "latitude": 43.70073,
    "longitude": 7.261433,
    "cuisines": ["French", "Mediterranean", "Barbecue", "European", "Healthy"],
    "city": "Nice",
    "address": "13 Av. Auber, 06000 Nice",
    "google_rating": 4.4,
    "rating": 4.45,
    "id": 161
  },
  {
    "name": "Chez Mireille",
    "tripadvisor_rating": 4.5,
    "price_range": "€€ - €€€",
    "latitude": 43.706497,
    "longitude": 7.266983,
    "cuisines": ["French", "Mediterranean", "European", "Spanish"],
    "city": "Nice",
    "address": "19 Bd Raimbaldi, 06000 Nice",
    "google_rating": 4.8,
    "rating": 4.65,
    "id": 162
  },
  {
    "name": "Giovanni Pizza",
    "tripadvisor_rating": 5,
    "price_range": "€€ - €€€",
    "latitude": 43.70491,
    "longitude": 7.28384,
    "cuisines": ["Italian", "Pizza", "Neapolitan"],
    "city": "Nice",
    "address": "14 Rue Barberis, 06300 Nice",
    "google_rating": 4.9,
    "rating": 4.95,
    "id": 163
  },
  {
    "name": "La Cantine de Mémé",
    "tripadvisor_rating": 5,
    "price_range": "€€ - €€€",
    "latitude": 43.69872,
    "longitude": 7.26715,
    "cuisines": ["French", "International", "European", "Healthy"],
    "city": "Nice",
    "address": "5 rue Longchamp, Imp. Longchamp, 06300 Nice",
    "google_rating": 4.9,
    "rating": 4.95,
    "id": 164
  },
  {
    "name": "Indian Curry & Tandoori - Nice",
    "tripadvisor_rating": 5,
    "price_range": "€€ - €€€",
    "latitude": 43.6962,
    "longitude": 7.260852,
    "cuisines": ["Indian", "Healthy"],
    "city": "Nice",
    "address": "12 Rue Meyerbeer, 06000 Nice",
    "google_rating": 4.7,
    "rating": 4.85,
    "id": 165
  },
  {
    "name": "Chez Marie Ange Restaurant Africain",
    "tripadvisor_rating": 4,
    "price_range": "€€ - €€€",
    "latitude": 43.701996,
    "longitude": 7.259892,
    "cuisines": ["African"],
    "city": "Nice",
    "address": "38 Av. Georges Clemenceau, 06000 Nice",
    "google_rating": 4.6,
    "rating": 4.3,
    "id": 166
  },
  {
    "name": "Restaurant China",
    "tripadvisor_rating": 4.5,
    "price_range": "€€ - €€€",
    "latitude": 43.703968,
    "longitude": 7.263559,
    "cuisines": ["Chinese", "Asian", "Vietnamese"],
    "city": "Nice",
    "address": "12 Rue d'Alsace-Lorraine, 06000 Nice",
    "google_rating": 4.7,
    "rating": 4.6,
    "id": 167
  },
  {
    "name": "La Favola",
    "tripadvisor_rating": 4,
    "price_range": "€€ - €€€",
    "latitude": 43.695827,
    "longitude": 7.273719,
    "cuisines": ["Italian", "Mediterranean", "European"],
    "city": "Nice",
    "address": "13 Cr Saleya, 06300 Nice",
    "google_rating": 4.4,
    "rating": 4.2,
    "id": 168
  },
  {
    "name": "La Voglia",
    "tripadvisor_rating": 4,
    "price_range": "€€ - €€€",
    "latitude": 43.695568,
    "longitude": 7.27331,
    "cuisines": ["Italian", "French", "Mediterranean", "European", "Healthy"],
    "city": "Nice",
    "address": "2 Rue Saint-François de Paule, 06300 Nice",
    "google_rating": 4.4,
    "rating": 4.2,
    "id": 169
  },
  {
    "name": "Acchiardo",
    "tripadvisor_rating": 4.5,
    "price_range": "€€ - €€€",
    "latitude": 43.697052,
    "longitude": 7.277003,
    "cuisines": ["Italian", "French", "Healthy"],
    "city": "Nice",
    "address": "38 Rue Droite, 06300 Nice",
    "google_rating": 4.7,
    "rating": 4.6,
    "id": 170
  },
  {
    "name": "Le galet",
    "tripadvisor_rating": 4,
    "price_range": "€€ - €€€",
    "latitude": 43.69468,
    "longitude": 7.266006,
    "cuisines": ["Italian", "French", "Mediterranean", "European", "Healthy"],
    "city": "Nice",
    "address": "3 Prom. des Anglais, 06200 Nice",
    "google_rating": 4.3,
    "rating": 4.15,
    "id": 171
  },
  {
    "name": "Lao Viet",
    "tripadvisor_rating": 4.5,
    "price_range": "€",
    "latitude": 43.70223,
    "longitude": 7.264791,
    "cuisines": ["Chinese", "Asian", "Vietnamese"],
    "city": "Nice",
    "address": "11 Rue d'Angleterre, 06000 Nice",
    "google_rating": 4.5,
    "rating": 4.5,
    "id": 172
  },
  {
    "name": "Acqua & Farina",
    "tripadvisor_rating": 4.5,
    "price_range": "€€ - €€€",
    "latitude": 43.69631,
    "longitude": 7.276968,
    "cuisines": ["Italian", "Pizza", "Mediterranean", "Neapolitan"],
    "city": "Nice",
    "address": "39 Rue de la Préfecture, 06300 Nice",
    "google_rating": 4.4,
    "rating": 4.45,
    "id": 173
  },
  {
    "name": "George's Roll Seafood",
    "tripadvisor_rating": 5,
    "price_range": "€",
    "latitude": 43.69639,
    "longitude": 7.277094,
    "cuisines": ["Street Food"],
    "city": "Nice",
    "address": "40 42 Rue Droite, 06300 Nice",
    "google_rating": 4.7,
    "rating": 4.85,
    "id": 174
  },
  {
    "name": "Sushi Lune",
    "tripadvisor_rating": 4.5,
    "price_range": "€€ - €€€",
    "latitude": 43.69831,
    "longitude": 7.276246,
    "cuisines": ["Japanese", "Sushi", "Asian"],
    "city": "Nice",
    "address": "26 Bd Jean Jaurès, 06300 Nice",
    "google_rating": 4.6,
    "rating": 4.55,
    "id": 175
  },
  {
    "name": "Le Bistrot du Port",
    "tripadvisor_rating": 4.5,
    "price_range": "€€ - €€€",
    "latitude": 43.694736,
    "longitude": 7.282966,
    "cuisines": ["French", "Mediterranean", "European"],
    "city": "Nice",
    "address": "28 Quai Lunel, 06300 Nice",
    "google_rating": 4.7,
    "rating": 4.6,
    "id": 176
  },
  {
    "name": "Cote Marais",
    "tripadvisor_rating": 4.5,
    "price_range": "€€ - €€€",
    "latitude": 43.697407,
    "longitude": 7.274965,
    "cuisines": ["French", "Mediterranean", "European", "Healthy"],
    "city": "Nice",
    "address": "4 Rue du Pontin, 06300 Nice",
    "google_rating": 4.6,
    "rating": 4.55,
    "id": 177
  },
  {
    "name": "La Merenda",
    "tripadvisor_rating": 4,
    "price_range": "€€ - €€€",
    "latitude": 43.696526,
    "longitude": 7.273113,
    "cuisines": ["French", "European"],
    "city": "Nice",
    "address": "4 Rue Raoul Bosio, 06300 Nice",
    "google_rating": 4.3,
    "rating": 4.15,
    "id": 178
  },
  {
    "name": "Chez Pipo",
    "tripadvisor_rating": 4,
    "price_range": "€",
    "latitude": 43.699932,
    "longitude": 7.285468,
    "cuisines": ["French", "Mediterranean", "European"],
    "city": "Nice",
    "address": "13 Rue Bavastro, 06300 Nice",
    "google_rating": 4.4,
    "rating": 4.2,
    "id": 179
  },
  {
    "name": "Indian Lounge",
    "tripadvisor_rating": 4,
    "price_range": "€€ - €€€",
    "latitude": 43.696888,
    "longitude": 7.277208,
    "cuisines": ["Indian"],
    "city": "Nice",
    "address": "34 Rue Droite, 06300 Nice",
    "google_rating": 4.3,
    "rating": 4.15,
    "id": 180
  },
  {
    "name": "Di Più",
    "tripadvisor_rating": 4,
    "price_range": "€€ - €€€",
    "latitude": 43.69523,
    "longitude": 7.273164,
    "cuisines": ["Italian", "Mediterranean", "European"],
    "city": "Nice",
    "address": "85 Quai des États-Unis, 06300 Nice",
    "google_rating": 4.3,
    "rating": 4.15,
    "id": 181
  },
  {
    "name": "Illia Pasta",
    "tripadvisor_rating": 4.5,
    "price_range": "€",
    "latitude": 43.698177,
    "longitude": 7.277721,
    "cuisines": ["Italian", "Mediterranean", "Healthy", "Street Food"],
    "city": "Nice",
    "address": "4 Rue Droite, 06300 Nice",
    "google_rating": 4.5,
    "rating": 4.5,
    "id": 182
  },
  {
    "name": "Restaurant l’Avenue",
    "tripadvisor_rating": 5,
    "price_range": "€€€€",
    "latitude": 43.773323,
    "longitude": 7.497732,
    "cuisines": ["Italian", "Mediterranean", "Healthy"],
    "city": "Menton",
    "address": "9 Av. de Verdun, 06500 Menton",
    "google_rating": 4.7,
    "rating": 4.85,
    "id": 183
  },
  {
    "name": "L’Orangerie-restaurant Menton",
    "tripadvisor_rating": 5,
    "price_range": "€€ - €€€",
    "latitude": 43.775314,
    "longitude": 7.503377,
    "cuisines": ["French", "Healthy"],
    "city": "Menton",
    "address": "3 Rue de la Marne, 06500 Menton",
    "google_rating": 4.7,
    "rating": 4.85,
    "id": 184
  },
  {
    "name": "Primo Atelier Della Pasta",
    "tripadvisor_rating": 4.5,
    "price_range": "€€ - €€€",
    "latitude": 43.777267,
    "longitude": 7.507743,
    "cuisines": ["Italian", "Mediterranean"],
    "city": "Menton",
    "address": "25 Quai Bonaparte, 06500 Menton",
    "google_rating": 4.5,
    "rating": 4.5,
    "id": 185
  },
  {
    "name": "Restaurant Le Galion",
    "tripadvisor_rating": 4.5,
    "price_range": "€€€€",
    "latitude": 43.784428,
    "longitude": 7.51973,
    "cuisines": ["Italian", "French", "Seafood", "Mediterranean", "European"],
    "city": "Menton",
    "address": "Nouveau Port de Menton Garavan, 06500 Menton",
    "google_rating": 4.5,
    "rating": 4.5,
    "id": 186
  },
  {
    "name": "Leone",
    "tripadvisor_rating": 4.5,
    "price_range": "€€ - €€€",
    "latitude": 43.779415,
    "longitude": 7.507607,
    "cuisines": ["Italian", "Grill", "Healthy", "Apulian", "Southern-Italian"],
    "city": "Menton",
    "address": "13 Sq. Victoria, 06500 Menton",
    "google_rating": 4.3,
    "rating": 4.4,
    "id": 187
  },
  {
    "name": "A l'ombre du clocher",
    "tripadvisor_rating": 4.5,
    "price_range": "€",
    "latitude": 43.776245,
    "longitude": 7.5034,
    "cuisines": ["French", "European"],
    "city": "Menton",
    "address": "3 rue magenta, Rue Lorédan Larchey, 06500 Menton",
    "google_rating": 4.6,
    "rating": 4.55,
    "id": 188
  },
  {
    "name": "Mirazur",
    "tripadvisor_rating": 4,
    "price_range": "€€€€",
    "latitude": 43.785873,
    "longitude": 7.527938,
    "cuisines": ["French", "Mediterranean", "European", "Healthy"],
    "city": "Menton",
    "address": "30 Av. Aristide Briand, 06500 Menton",
    "google_rating": 4.4,
    "rating": 4.2,
    "id": 189
  },
  {
    "name": "La Petite Cave",
    "tripadvisor_rating": 4.5,
    "price_range": "€",
    "latitude": 43.776203,
    "longitude": 7.508289,
    "cuisines": ["French"],
    "city": "Menton",
    "address": "6 Dsc du Petit Port, 06500 Menton",
    "google_rating": 4.5,
    "rating": 4.5,
    "id": 190
  },
  {
    "name": "JR Bistronomie",
    "tripadvisor_rating": 4.5,
    "price_range": "€€ - €€€",
    "latitude": 43.775455,
    "longitude": 7.504683,
    "cuisines": ["French", "European", "Healthy"],
    "city": "Menton",
    "address": "11 Rue Trenca, 06500 Menton",
    "google_rating": 4.6,
    "rating": 4.55,
    "id": 191
  },
  {
    "name": "La Trattoria - Menton",
    "tripadvisor_rating": 4.5,
    "price_range": "€€ - €€€",
    "latitude": 43.773685,
    "longitude": 7.497263,
    "cuisines": [
      "Italian",
      "Mediterranean",
      "European",
      "Healthy",
      "Sicilian",
      "Southern-Italian"
    ],
    "city": "Menton",
    "address": "15 Av. de Verdun, 06500 Menton",
    "google_rating": 4.6,
    "rating": 4.55,
    "id": 192
  },
  {
    "name": "Tony Restaurant",
    "tripadvisor_rating": 4.5,
    "price_range": "€€ - €€€",
    "latitude": 43.77668,
    "longitude": 7.507854,
    "cuisines": ["Italian", "Mediterranean", "Healthy"],
    "city": "Menton",
    "address": "9 Quai Bonaparte, 06500 Menton",
    "google_rating": 4.4,
    "rating": 4.45,
    "id": 193
  },
  {
    "name": "Le Petit Prince Restaurant",
    "tripadvisor_rating": 4.5,
    "price_range": "€€ - €€€",
    "latitude": 43.766277,
    "longitude": 7.488657,
    "cuisines": ["French", "Mediterranean", "European"],
    "city": "Menton",
    "address": "69 Prom. du Soleil, 06500 Menton",
    "google_rating": 4,
    "rating": 4.25,
    "id": 194
  },
  {
    "name": "Les Enfants Terribles",
    "tripadvisor_rating": 4,
    "price_range": "€€ - €€€",
    "latitude": 43.776405,
    "longitude": 7.507582,
    "cuisines": ["Italian", "French", "Seafood", "Mediterranean", "Healthy"],
    "city": "Menton",
    "address": "3 Quai Bonaparte, 06500 Menton",
    "google_rating": 4.1,
    "rating": 4.05,
    "id": 195
  },
  {
    "name": "Sini",
    "tripadvisor_rating": 4.5,
    "price_range": "€",
    "latitude": 43.77555,
    "longitude": 7.506073,
    "cuisines": ["Italian", "Pizza", "Mediterranean", "European"],
    "city": "Menton",
    "address": "7 Rue des Marins, 06500 Menton",
    "google_rating": 4.5,
    "rating": 4.5,
    "id": 196
  },
  {
    "name": "Little Italy",
    "tripadvisor_rating": 4.5,
    "price_range": "€€ - €€€",
    "latitude": 43.77573,
    "longitude": 7.504988,
    "cuisines": ["Italian", "Pizza", "Seafood", "Mediterranean", "European"],
    "city": "Menton",
    "address": "7 Rue Pieta, 06500 Menton",
    "google_rating": 4.5,
    "rating": 4.5,
    "id": 197
  },
  {
    "name": "L'Embuscade",
    "tripadvisor_rating": 4,
    "price_range": "€€ - €€€",
    "latitude": 43.77836,
    "longitude": 7.497931,
    "cuisines": ["French", "Barbecue"],
    "city": "Menton",
    "address": "Plateau saint Michel, Rte des Ciappes de Castellar, 06500 Menton",
    "google_rating": 4.5,
    "rating": 4.25,
    "id": 198
  },
  {
    "name": "Port Garavan",
    "tripadvisor_rating": 4.5,
    "price_range": "€€ - €€€",
    "latitude": 43.78329,
    "longitude": 7.514704,
    "cuisines": [
      "Italian",
      "Seafood",
      "International",
      "Mediterranean",
      "European"
    ],
    "city": "Menton",
    "address": "Terre-Plein du Nouveau Port, 889 Prom. de la Mer, 06500 Menton",
    "google_rating": 4.4,
    "rating": 4.45,
    "id": 199
  },
  {
    "name": "Le P'tit Resto",
    "tripadvisor_rating": 4.5,
    "price_range": "€€ - €€€",
    "latitude": 43.770634,
    "longitude": 7.493782,
    "cuisines": ["French", "European"],
    "city": "Menton",
    "address": "19 Av. de la Madone, 06500 Menton",
    "google_rating": 4.6,
    "rating": 4.55,
    "id": 200
  },
  {
    "name": "Pizz'Alex",
    "tripadvisor_rating": 4.5,
    "price_range": "€",
    "latitude": 43.77103,
    "longitude": 7.493584,
    "cuisines": ["Italian", "Pizza", "European"],
    "city": "Menton",
    "address": "3 Av. Cernuschi, 06500 Menton",
    "google_rating": 4.1,
    "rating": 4.3,
    "id": 201
  },
  {
    "name": "Vulcano",
    "tripadvisor_rating": 4,
    "price_range": "€",
    "latitude": 43.775604,
    "longitude": 7.503731,
    "cuisines": ["Italian", "Pizza", "European"],
    "city": "Menton",
    "address": "30 Rue de la République, 06500 Menton",
    "google_rating": 4.6,
    "rating": 4.3,
    "id": 202
  },
  {
    "name": "A.Braïjade Méridionale",
    "tripadvisor_rating": 4.5,
    "price_range": "€€ - €€€",
    "latitude": 43.778465,
    "longitude": 7.506923,
    "cuisines": ["French", "Mediterranean"],
    "city": "Menton",
    "address": "123 Rue Longue, 06500 Menton",
    "google_rating": 4.6,
    "rating": 4.55,
    "id": 203
  },
  {
    "name": "Cocotte Cafe Menton",
    "tripadvisor_rating": 5,
    "price_range": "€",
    "latitude": 43.776726,
    "longitude": 7.507921,
    "cuisines": ["French", "Mediterranean", "European", "Healthy"],
    "city": "Menton",
    "address": "11 Quai Bonaparte, 06500 Menton",
    "google_rating": 4.7,
    "rating": 4.85,
    "id": 204
  },
  {
    "name": "Le 31",
    "tripadvisor_rating": 4.5,
    "price_range": "€€ - €€€",
    "latitude": 43.777554,
    "longitude": 7.507553,
    "cuisines": ["French"],
    "city": "Menton",
    "address": "31 Quai Bonaparte, 06500 Menton",
    "google_rating": 4.4,
    "rating": 4.45,
    "id": 205
  },
  {
    "name": "Crêperie St Michel",
    "tripadvisor_rating": 4,
    "price_range": "€€ - €€€",
    "latitude": 43.77573,
    "longitude": 7.505367,
    "cuisines": ["French", "European"],
    "city": "Menton",
    "address": "5 Rue Pieta, 06500 Menton",
    "google_rating": 4.4,
    "rating": 4.2,
    "id": 206
  },
  {
    "name": "Cote Sud",
    "tripadvisor_rating": 4,
    "price_range": "€€ - €€€",
    "latitude": 43.7769,
    "longitude": 7.507811,
    "cuisines": [
      "Italian",
      "Pizza",
      "Seafood",
      "Mediterranean",
      "European",
      "Healthy"
    ],
    "city": "Menton",
    "address": "15 Quai Bonaparte, 06500 Menton",
    "google_rating": 4.3,
    "rating": 4.15,
    "id": 207
  },
  {
    "name": "Casa Fuego",
    "tripadvisor_rating": 4,
    "price_range": "€€€€",
    "latitude": 43.786255,
    "longitude": 7.52767,
    "cuisines": ["Argentinean"],
    "city": "Menton",
    "address": "80 bis Bd de Garavan, 06500 Menton",
    "google_rating": 4.1,
    "rating": 4.05,
    "id": 208
  },
  {
    "name": "Restaurant Phnom Penh",
    "tripadvisor_rating": 4.5,
    "price_range": "€€ - €€€",
    "latitude": 43.78037,
    "longitude": 7.49418,
    "cuisines": ["Chinese", "Asian", "Cambodian"],
    "city": "Menton",
    "address": "46 Prom. du Maréchal Leclerc de Hautecloque, 06500 Menton",
    "google_rating": 4.6,
    "rating": 4.55,
    "id": 209
  },
  {
    "name": "O Frais",
    "tripadvisor_rating": 4.5,
    "price_range": "€",
    "latitude": 43.77356,
    "longitude": 7.49791,
    "cuisines": ["French", "Mediterranean"],
    "city": "Menton",
    "address": "9 Av. de Verdun, 06500 Menton",
    "google_rating": 4.5,
    "rating": 4.5,
    "id": 210
  },
  {
    "name": "La Crepe a l'Envers",
    "tripadvisor_rating": 5,
    "price_range": "€€ - €€€",
    "latitude": 43.77546,
    "longitude": 7.504813,
    "cuisines": ["French", "Fast Food", "European", "Healthy"],
    "city": "Menton",
    "address": "6 Rue Trenca, 06500 Menton",
    "google_rating": 4.8,
    "rating": 4.9,
    "id": 211
  },
  {
    "name": "A boire, A manger",
    "tripadvisor_rating": 4.5,
    "price_range": "€€ - €€€",
    "latitude": 43.775517,
    "longitude": 7.503658,
    "cuisines": ["French", "European"],
    "city": "Menton",
    "address": "5 Rue du Vieux Collège, 06500 Menton",
    "google_rating": 4.6,
    "rating": 4.55,
    "id": 212
  }
]
